{"type":"FeatureCollection","features":[{"type":"Feature","properties":{"NAME":"Altgeld","HOURS OF OPERATION":"M, W: 12PM-8PM; TU, TH: 10AM-6PM; F, SA: 9AM-5PM; SU: Closed","CYBERNAVIGATOR":"Yes","TEACHER IN THE LIBRARY":"Yes","ADDRESS":"13281 S. Corliss Avenue","CITY":"CHICAGO","STATE":"IL","ZIP":"60827","PHONE":"(312) 747-3270","WEBSITE":"http://www.chipublib.org/branch/details/library/altgeld/","LOCATION":"13281 Corliss Avenue\nCHICAGO, IL 60827\n(41.65473021837776, -87.6022302609835)"},"geometry":null},{"type":"Feature","properties":{"NAME":"Archer Heights","HOURS OF OPERATION":"M, W: 12PM-8PM; TU, TH: 10AM-6PM; F, SA: 9AM-5PM; SU: Closed","CYBERNAVIGATOR":"No","TEACHER IN THE LIBRARY":"No","ADDRESS":"5055 S. Archer Avenue","CITY":"CHICAGO","STATE":"IL","ZIP":"60632","PHONE":"(312) 747-9241","WEBSITE":"http://www.chipublib.org/branch/details/library/archer-heights/","LOCATION":"5055 Archer Avenue\nCHICAGO, IL 60632\n(41.8012136599335, -87.72649071431441)"},"geometry":null},{"type":"Feature","properties":{"NAME":"Austin","HOURS OF OPERATION":"M, W: 12PM-8PM; TU, TH: 10AM-6PM; F, SA: 9AM-5PM; SU: Closed","CYBERNAVIGATOR":"Yes","TEACHER IN THE LIBRARY":"Yes","ADDRESS":"5615 W. Race Avenue","CITY":"CHICAGO","STATE":"IL","ZIP":"60644","PHONE":"(312) 746-5038","WEBSITE":"http://www.chipublib.org/branch/details/library/austin/","LOCATION":"5615 Race Avenue\nCHICAGO, IL 60644\n(41.889272153514526, -87.76571186722818)"},"geometry":null},{"type":"Feature","properties":{"NAME":"Austin-Irving","HOURS OF OPERATION":"M, W: 12PM-8PM; TU, TH: 10AM-6PM; F, SA: 9AM-5PM; SU: Closed","CYBERNAVIGATOR":"No","TEACHER IN THE LIBRARY":"Yes","ADDRESS":"6100 W. Irving Park Road","CITY":"CHICAGO","STATE":"IL","ZIP":"60634","PHONE":"(312) 744-6222","WEBSITE":"http://www.chipublib.org/branch/details/library/austin-irving/","LOCATION":"6100 Irving Park Road\nCHICAGO, IL 60634\n(41.95317390064158, -87.77938682073541)"},"geometry":null},{"type":"Feature","properties":{"NAME":"Avalon","HOURS OF OPERATION":"M, W: 12PM-8PM; TU, TH: 10AM-6PM; F, SA: 9AM-5PM; SU: Closed","CYBERNAVIGATOR":"Yes","TEACHER IN THE LIBRARY":"Yes","ADDRESS":"8148 S. Stony Island Avenue ","CITY":"CHICAGO","STATE":"IL","ZIP":"60617","PHONE":"(312) 747-5234","WEBSITE":"http://www.chipublib.org/branch/details/library/avalon/","LOCATION":"8148 Stony Island Avenue\nCHICAGO, IL 60617\n(41.74671722160199, -87.58539658719002)"},"geometry":null},{"type":"Feature","properties":{"NAME":"Beverly","HOURS OF OPERATION":"M, W: 12PM-8PM; TU, TH: 10AM-6PM; F, SA: 9AM-5PM; SU: Closed","CYBERNAVIGATOR":"No","TEACHER IN THE LIBRARY":"Yes","ADDRESS":"1962 W. 95th Street","CITY":"CHICAGO","STATE":"IL","ZIP":"60643","PHONE":"(312) 747-9673","WEBSITE":"http://www.chipublib.org/branch/details/library/beverly/","LOCATION":"1962 95th Street\nCHICAGO, IL 60643\n(41.721180505456495, -87.6719464613888)"},"geometry":null},{"type":"Feature","properties":{"NAME":"Bezazian","HOURS OF OPERATION":"M, W: 12PM-8PM; TU, TH: 10AM-6PM; F, SA: 9AM-5PM; SU: Closed","CYBERNAVIGATOR":"No","TEACHER IN THE LIBRARY":"No","ADDRESS":"1226 W. Ainslie Street","CITY":"CHICAGO","STATE":"IL","ZIP":"60640","PHONE":"(312) 744-0019","WEBSITE":"http://www.chipublib.org/branch/details/library/bezazian/","LOCATION":"1226 Ainslie Street\nCHICAGO, IL 60640\n(41.97168194800458, -87.66073027218957)"},"geometry":null},{"type":"Feature","properties":{"NAME":"Blackstone","HOURS OF OPERATION":"M, W: 12PM-8PM; TU, TH: 10AM-6PM; F, SA: 9AM-5PM; SU: Closed","CYBERNAVIGATOR":"Yes","TEACHER IN THE LIBRARY":"Yes","ADDRESS":"4904 S. Lake Park Avenue","CITY":"CHICAGO","STATE":"IL","ZIP":"60615","PHONE":"(312) 747-0511","WEBSITE":"http://www.chipublib.org/branch/details/library/blackstone/","LOCATION":"4904 Lake Park Avenue\nCHICAGO, IL 60615\n(41.8058403098503, -87.58934182212592)"},"geometry":null},{"type":"Feature","properties":{"NAME":"Brainerd","HOURS OF OPERATION":"M, W: 10AM-6PM;  TU, TH: 12PM-8PM; F, SA: 9AM-5PM; SU: Closed","CYBERNAVIGATOR":"Yes","TEACHER IN THE LIBRARY":"No","ADDRESS":"1350 W. 89th Street","CITY":"CHICAGO","STATE":"IL","ZIP":"60620","PHONE":"(312) 747-6291","WEBSITE":"http://www.chipublib.org/branch/details/library/brainerd/","LOCATION":"1350 89th Street\nCHICAGO, IL 60620\n(41.732316757097045, -87.65723451581835)"},"geometry":null},{"type":"Feature","properties":{"NAME":"Brighton Park","HOURS OF OPERATION":"M, W: 10AM-6PM;  TU, TH: 12PM-8PM; F, SA: 9AM-5PM; SU: Closed","CYBERNAVIGATOR":"Yes","TEACHER IN THE LIBRARY":"No","ADDRESS":"4314 S. Archer Avenue","CITY":"CHICAGO","STATE":"IL","ZIP":"60632","PHONE":"(312) 747-0666","WEBSITE":"http://www.chipublib.org/branch/details/library/brighton-park/","LOCATION":"4314 Archer Avenue\nCHICAGO, IL 60632\n(41.815138789328266, -87.70265431614907)"},"geometry":null},{"type":"Feature","properties":{"NAME":"Bucktown-Wicker Park","HOURS OF OPERATION":"M, W: 12PM-8PM; TU, TH: 10AM-6PM; F, SA: 9AM-5PM; SU: Closed","CYBERNAVIGATOR":"No","TEACHER IN THE LIBRARY":"Yes","ADDRESS":"1701 N. Milwaukee Avenue","CITY":"CHICAGO","STATE":"IL","ZIP":"60647","PHONE":"(312) 744-6022","WEBSITE":"http://www.chipublib.org/branch/details/library/bucktown-wicker-park/","LOCATION":"1701 Milwaukee Avenue\nCHICAGO, IL 60647\n(41.91272239576367, -87.6805873025965)"},"geometry":null},{"type":"Feature","properties":{"NAME":"Budlong Woods","HOURS OF OPERATION":"M, W: 12PM-8PM; TU, TH: 10AM-6PM; F, SA: 9AM-5PM; SU: Closed","CYBERNAVIGATOR":"No","TEACHER IN THE LIBRARY":"Yes","ADDRESS":"5630 N. Lincoln Avenue","CITY":"CHICAGO","STATE":"IL","ZIP":"60659","PHONE":"(312) 742-9590","WEBSITE":"http://www.chipublib.org/branch/details/library/budlong-woods/","LOCATION":"5630 Lincoln Avenue\nCHICAGO, IL 60659\n(41.98457226437275, -87.69773449236712)"},"geometry":null},{"type":"Feature","properties":{"NAME":"Canaryville","HOURS OF OPERATION":"M, W: 12PM-8PM; TU, TH: 10AM-6PM; F, SA: 9AM-5PM; SU: Closed","CYBERNAVIGATOR":"Yes","TEACHER IN THE LIBRARY":"No","ADDRESS":"642 W. 43rd Street","CITY":"CHICAGO","STATE":"IL","ZIP":"60609","PHONE":"(312) 747-0644","WEBSITE":"http://www.chipublib.org/branch/details/library/canaryville/","LOCATION":"642 43rd Street\nCHICAGO, IL 60609\n(41.815505684396335, -87.64250101465565)"},"geometry":null},{"type":"Feature","properties":{"NAME":"Chicago Bee","HOURS OF OPERATION":"M, W: 12PM-8PM; TU, TH: 10AM-6PM; F, SA: 9AM-5PM; SU: Closed","CYBERNAVIGATOR":"Yes","TEACHER IN THE LIBRARY":"Yes","ADDRESS":"3647 S. State Street","CITY":"CHICAGO","STATE":"IL","ZIP":"60609","PHONE":"(312) 747-6872","WEBSITE":"http://www.chipublib.org/branch/details/library/chicago-bee/","LOCATION":"3647 State Street\nCHICAGO, IL 60609\n(41.8284268698988, -87.62640221644719)"},"geometry":null},{"type":"Feature","properties":{"NAME":"Chicago Lawn","HOURS OF OPERATION":"M, W: 10AM-6PM;  TU, TH: 12PM-8PM; F, SA: 9AM-5PM; SU: Closed","CYBERNAVIGATOR":"Yes","TEACHER IN THE LIBRARY":"Yes","ADDRESS":"6120 S. Kedzie Avenue ","CITY":"CHICAGO","STATE":"IL","ZIP":"60629","PHONE":"(312) 747-0639","WEBSITE":"http://www.chipublib.org/branch/details/library/chicago-lawn/","LOCATION":"6120 Kedzie Avenue\nCHICAGO, IL 60629\n(41.78180787787282, -87.70326162211758)"},"geometry":null},{"type":"Feature","properties":{"NAME":"Chinatown","HOURS OF OPERATION":"M, W: 12PM-8PM; TU, TH: 10AM-6PM; F, SA: 9AM-5PM; SU: Closed","CYBERNAVIGATOR":"Yes","TEACHER IN THE LIBRARY":"Yes","ADDRESS":"2353 S. Wentworth Avenue","CITY":"CHICAGO","STATE":"IL","ZIP":"60616","PHONE":"(312) 747-8013","WEBSITE":"http://www.chipublib.org/branch/details/library/chinatown/","LOCATION":"2353 Wentworth Avenue\nCHICAGO, IL 60616\n(41.849753498689424, -87.63190001364559)"},"geometry":null},{"type":"Feature","properties":{"NAME":"Clearing","HOURS OF OPERATION":"M, W: 12PM-8PM; TU, TH: 10AM-6PM; F, SA: 9AM-5PM; SU: Closed","CYBERNAVIGATOR":"No","TEACHER IN THE LIBRARY":"Yes","ADDRESS":"6423 W. 63rd Place","CITY":"CHICAGO","STATE":"IL","ZIP":"60638","PHONE":"(312) 747-5657","WEBSITE":"http://www.chipublib.org/branch/details/library/clearing/","LOCATION":"6423 63rd Place\nCHICAGO, IL 60638\n(41.77678205621646, -87.78181978755116)"},"geometry":null},{"type":"Feature","properties":{"NAME":"Coleman","HOURS OF OPERATION":"M, W: 12PM-8PM; TU, TH: 10AM-6PM; F, SA: 9AM-5PM; SU: Closed","CYBERNAVIGATOR":"Yes","TEACHER IN THE LIBRARY":"Yes","ADDRESS":"731 E. 63rd Street","CITY":"CHICAGO","STATE":"IL","ZIP":"60637","PHONE":"(312) 747-7760","WEBSITE":"http://www.chipublib.org/branch/details/library/bessie-coleman/","LOCATION":"731 63rd Street\nCHICAGO, IL 60637\n(41.78037301095412, -87.60715724280014)"},"geometry":null},{"type":"Feature","properties":{"NAME":"Daley, Richard J.-Bridgeport","HOURS OF OPERATION":"M, W: 10AM-6PM;  TU, TH: 12PM-8PM; F, SA: 9AM-5PM; SU: Closed","CYBERNAVIGATOR":"Yes","TEACHER IN THE LIBRARY":"Yes","ADDRESS":"3400 S. Halsted Street","CITY":"CHICAGO","STATE":"IL","ZIP":"60608","PHONE":"(312) 747-8990","WEBSITE":"http://www.chipublib.org/branch/details/library/daley/","LOCATION":"3400 Halsted Street\nCHICAGO, IL 60608\n(41.83228703346308, -87.64648501124545)"},"geometry":null},{"type":"Feature","properties":{"NAME":"Daley, Richard M.-W Humboldt","HOURS OF OPERATION":"M, W: 10AM-6PM;  TU, TH: 12PM-8PM; F, SA: 9AM-5PM; SU: Closed","CYBERNAVIGATOR":"Yes","TEACHER IN THE LIBRARY":"Yes","ADDRESS":"733 N. Kedzie Avenue","CITY":"CHICAGO","STATE":"IL","ZIP":"60612","PHONE":"(312) 743-0555","WEBSITE":"http://www.chipublib.org/branch/details/library/daley-w-humboldt/","LOCATION":"733 Kedzie Avenue\nCHICAGO, IL 60612\n(41.8943707, -87.7064607)"},"geometry":null},{"type":"Feature","properties":{"NAME":"Douglass","HOURS OF OPERATION":"M, W: 10AM-6PM;  TU, TH: 12PM-8PM; F, SA: 9AM-5PM; SU: Closed","CYBERNAVIGATOR":"No","TEACHER IN THE LIBRARY":"Yes","ADDRESS":"3353 W. 13th Street","CITY":"CHICAGO","STATE":"IL","ZIP":"60623","PHONE":"(312) 747-3725","WEBSITE":"http://www.chipublib.org/branch/details/library/douglass/","LOCATION":"3353 13th Street\nCHICAGO, IL 60623\n(41.864500759742604, -87.70968548933996)"},"geometry":null},{"type":"Feature","properties":{"NAME":"Dunning","HOURS OF OPERATION":"M, W: 12PM-8PM; TU, TH: 10AM-6PM; F, SA: 9AM-5PM; SU: Closed","CYBERNAVIGATOR":"No","TEACHER IN THE LIBRARY":"No","ADDRESS":"7455 W. Cornelia Avenue","CITY":"CHICAGO","STATE":"IL","ZIP":"60634","PHONE":"(312) 743-0480","WEBSITE":"http://www.chipublib.org/branch/details/library/dunning/","LOCATION":"7455 Cornelia Avenue\nCHICAGO, IL 60634\n(41.943308, -87.817497)"},"geometry":null},{"type":"Feature","properties":{"NAME":"Edgebrook","HOURS OF OPERATION":"M, W: 12PM-8PM; TU, TH: 10AM-6PM; F, SA: 9AM-5PM; SU: Closed","CYBERNAVIGATOR":"No","TEACHER IN THE LIBRARY":"No","ADDRESS":"5331 W. Devon Avenue","CITY":"CHICAGO","STATE":"IL","ZIP":"60646","PHONE":"(312) 744-8313","WEBSITE":"http://www.chipublib.org/branch/details/library/edgebrook/","LOCATION":"5331 Devon Avenue\nCHICAGO, IL 60646\n(41.9969708834685, -87.7620478920105)"},"geometry":null},{"type":"Feature","properties":{"NAME":"Edgewater","HOURS OF OPERATION":"M, W: 10AM-6PM;  TU, TH: 12PM-8PM; F, SA: 9AM-5PM; SU: Closed","CYBERNAVIGATOR":"No","TEACHER IN THE LIBRARY":"No","ADDRESS":"6000 N. Broadway Street","CITY":"CHICAGO","STATE":"IL","ZIP":"60660","PHONE":"(312) 744-0718","WEBSITE":"http://www.chipublib.org/branch/details/library/edgewater/","LOCATION":"6000 Broadway Street\nCHICAGO, IL 60660\n(41.990996, -87.660757)"},"geometry":null},{"type":"Feature","properties":{"NAME":"Gage Park","HOURS OF OPERATION":"M, W: 10AM-6PM;  TU, TH: 12PM-8PM; F, SA: 9AM-5PM; SU: Closed","CYBERNAVIGATOR":"No","TEACHER IN THE LIBRARY":"No","ADDRESS":"2807 W. 55th Street","CITY":"CHICAGO","STATE":"IL","ZIP":"60632","PHONE":"(312) 747-0032","WEBSITE":"http://www.chipublib.org/branch/details/library/gage-park/","LOCATION":"2807 55th Street\nCHICAGO, IL 60632\n(41.79369723271382, -87.69404645462895)"},"geometry":null},{"type":"Feature","properties":{"NAME":"Galewood-Mont Clare","HOURS OF OPERATION":"M-TH: 10AM-6PM; F: 9AM-5PM; SA, SU: Closed","CYBERNAVIGATOR":"No","TEACHER IN THE LIBRARY":"No","ADDRESS":"6871 W. Belden Avenue","CITY":"CHICAGO","STATE":"IL","ZIP":"60707","PHONE":"(312) 746-0165","WEBSITE":"http://www.chipublib.org/branch/details/library/galewood-mont-clare/","LOCATION":"6871 Belden Avenue\nCHICAGO, IL 60707\n(41.921114724943386, -87.79724102070298)"},"geometry":null},{"type":"Feature","properties":{"NAME":"Garfield Ridge","HOURS OF OPERATION":"M, W: 10AM-6PM;  TU, TH: 12PM-8PM; F, SA: 9AM-5PM; SU: Closed","CYBERNAVIGATOR":"No","TEACHER IN THE LIBRARY":"Yes","ADDRESS":"6348 S. Archer Avenue","CITY":"CHICAGO","STATE":"IL","ZIP":"60638","PHONE":"(312) 747-6094","WEBSITE":"http://www.chipublib.org/branch/details/library/garfield-ridge/","LOCATION":"6348 Archer Avenue\nCHICAGO, IL 60638\n(41.79298666078267, -87.78013325801972)"},"geometry":null},{"type":"Feature","properties":{"NAME":"Greater Grand Crossing","HOURS OF OPERATION":"M, W: 12PM-8PM; TU, TH: 10AM-6PM; F, SA: 9AM-5PM; SU: Closed","CYBERNAVIGATOR":"Yes","TEACHER IN THE LIBRARY":"Yes","ADDRESS":"1000 East 73rd Street","CITY":"CHICAGO","STATE":"IL","ZIP":"60619","PHONE":"(312) 745-1608","WEBSITE":"http://www.chipublib.org/branch/details/library/greater-grand-crossing/","LOCATION":"1000 73rd Street\nCHICAGO, IL 60619\n(41.7623, -87.6005)"},"geometry":null},{"type":"Feature","properties":{"NAME":"Hall","HOURS OF OPERATION":"M, W: 10AM-6PM;  TU, TH: 12PM-8PM; F, SA: 9AM-5PM; SU: Closed","CYBERNAVIGATOR":"Yes","TEACHER IN THE LIBRARY":"Yes","ADDRESS":"4801 S. Michigan Avenue","CITY":"CHICAGO","STATE":"IL","ZIP":"60615","PHONE":"(312) 747-2541","WEBSITE":"http://www.chipublib.org/branch/details/library/hall/","LOCATION":"4801 Michigan Avenue\nCHICAGO, IL 60615\n(41.80743298280974, -87.62273981936815)"},"geometry":null},{"type":"Feature","properties":{"NAME":"Harold Washington-HWLC","HOURS OF OPERATION":"M-TH: 9AM-9PM; F, SA: 9AM-5PM; SU: 1PM-5PM","CYBERNAVIGATOR":"Yes","TEACHER IN THE LIBRARY":"No","ADDRESS":"400 S. State Street","CITY":"CHICAGO","STATE":"IL","ZIP":"60605","PHONE":"(312) 747-4300","WEBSITE":"http://www.chipublib.org/branch/details/library/harold-washington/","LOCATION":"400 State Street\nCHICAGO, IL 60605\n(41.87629985357702, -87.62819280116949)"},"geometry":null},{"type":"Feature","properties":{"NAME":"Hegewisch","HOURS OF OPERATION":"M, W: 10AM-6PM;  TU, TH: 12PM-8PM; F, SA: 9AM-5PM; SU: Closed","CYBERNAVIGATOR":"No","TEACHER IN THE LIBRARY":"Yes","ADDRESS":"3048 E. 130th Street","CITY":"CHICAGO","STATE":"IL","ZIP":"60633","PHONE":"(312) 747-0046","WEBSITE":"http://www.chipublib.org/branch/details/library/hegewisch/","LOCATION":"3048 130th Street\nCHICAGO, IL 60633\n(41.65917887033542, -87.54824132727411)"},"geometry":null},{"type":"Feature","properties":{"NAME":"Humboldt Park","HOURS OF OPERATION":"M, W: 12PM-8PM; TU, TH: 10AM-6PM; F, SA: 9AM-5PM; SU: Closed","CYBERNAVIGATOR":"Yes","TEACHER IN THE LIBRARY":"Yes","ADDRESS":"1605 N. Troy Street","CITY":"CHICAGO","STATE":"IL","ZIP":"60647","PHONE":"(312) 744-2244","WEBSITE":"http://www.chipublib.org/branch/details/library/humboldt/","LOCATION":"1605 Troy\nStreetCHICAGO, IL 60647\n(41.910328, -87.705427)"},"geometry":null},{"type":"Feature","properties":{"NAME":"Independence","HOURS OF OPERATION":"M, W: 10AM-6PM;  TU, TH: 12PM-8PM; F, SA: 9AM-5PM; SU: Closed","CYBERNAVIGATOR":"No","TEACHER IN THE LIBRARY":"Yes","ADDRESS":"3548 W. Irving Park Road","CITY":"CHICAGO","STATE":"IL","ZIP":"60618","PHONE":"(312) 744-0900","WEBSITE":"http://www.chipublib.org/branch/details/library/independence/","LOCATION":"3548 Irving Park Road\nCHICAGO, IL 60618\n(41.953903720729926, -87.71694255042644)"},"geometry":null},{"type":"Feature","properties":{"NAME":"Jefferson Park","HOURS OF OPERATION":"M, W: 10AM-6PM;  TU, TH: 12PM-8PM; F, SA: 9AM-5PM; SU: Closed","CYBERNAVIGATOR":"No","TEACHER IN THE LIBRARY":"No","ADDRESS":"5363 W. Lawrence Avenue","CITY":"CHICAGO","STATE":"IL","ZIP":"60630","PHONE":"(312) 744-1998","WEBSITE":"http://www.chipublib.org/branch/details/library/jefferson-park/","LOCATION":"5363 Lawrence Avenue\nCHICAGO, IL 60630\n(41.96759739182978, -87.76155426232721)"},"geometry":null},{"type":"Feature","properties":{"NAME":"Jeffery Manor","HOURS OF OPERATION":"M, W: 10AM-6PM;  TU, TH: 12PM-8PM; F, SA: 9AM-5PM; SU: Closed","CYBERNAVIGATOR":"Yes","TEACHER IN THE LIBRARY":"Yes","ADDRESS":"2401 E. 100th Street","CITY":"CHICAGO","STATE":"IL","ZIP":"60617","PHONE":"(312) 747-6479","WEBSITE":"http://www.chipublib.org/branch/details/library/jeffery-manor/","LOCATION":"2401 100th Street\nCHICAGO, IL 60617\n(41.71326176288522, -87.56549206928669)"},"geometry":null},{"type":"Feature","properties":{"NAME":"Kelly","HOURS OF OPERATION":"M, W: 10AM-6PM;  TU, TH: 12PM-8PM; F, SA: 9AM-5PM; SU: Closed","CYBERNAVIGATOR":"Yes","TEACHER IN THE LIBRARY":"Yes","ADDRESS":"6151 S. Normal Boulevard","CITY":"CHICAGO","STATE":"IL","ZIP":"60621","PHONE":"(312) 747-8418","WEBSITE":"http://www.chipublib.org/branch/details/library/kelly/","LOCATION":"6151 Normal Boulevard\nCHICAGO, IL 60621\n(41.78217163315653, -87.63740786532117)"},"geometry":null},{"type":"Feature","properties":{"NAME":"King","HOURS OF OPERATION":"M, W: 10AM-6PM;  TU, TH: 12PM-8PM; F, SA: 9AM-5PM; SU: Closed","CYBERNAVIGATOR":"No","TEACHER IN THE LIBRARY":"Yes","ADDRESS":"3436 S. King Drive","CITY":"CHICAGO","STATE":"IL","ZIP":"60616","PHONE":"(312) 747-7543","WEBSITE":"http://www.chipublib.org/branch/details/library/king/","LOCATION":"3436 King Drive\nCHICAGO, IL 60616\n(41.83180139956726, -87.6177606656296)"},"geometry":null},{"type":"Feature","properties":{"NAME":"Legler","HOURS OF OPERATION":"M, W: 12PM-8PM; TU, TH: 10AM-6PM; F, SA: 9AM-5PM; SU: Closed","CYBERNAVIGATOR":"Yes","TEACHER IN THE LIBRARY":"Yes","ADDRESS":"115 S. Pulaski Road","CITY":"CHICAGO","STATE":"IL","ZIP":"60624","PHONE":"(312) 746-7730","WEBSITE":"http://www.chipublib.org/branch/details/library/legler/","LOCATION":"115 Pulaski Road\nCHICAGO, IL 60624\n(41.87933865849079, -87.72556034620074)"},"geometry":null},{"type":"Feature","properties":{"NAME":"Lincoln Belmont","HOURS OF OPERATION":"M, W: 10AM-6PM;  TU, TH: 12PM-8PM; F, SA: 9AM-5PM; SU: Closed","CYBERNAVIGATOR":"Yes","TEACHER IN THE LIBRARY":"No","ADDRESS":"1659 W. Melrose Street","CITY":"CHICAGO","STATE":"IL","ZIP":"60657","PHONE":"(312) 744-0166","WEBSITE":"http://www.chipublib.org/branch/details/library/lincoln-belmont/","LOCATION":"1659 Melrose Street\nCHICAGO, IL 60657\n(41.94031359562259, -87.67075771281625)"},"geometry":null},{"type":"Feature","properties":{"NAME":"Lincoln Park","HOURS OF OPERATION":"M, W: 10AM-6PM;  TU, TH: 12PM-8PM; F, SA: 9AM-5PM; SU: Closed","CYBERNAVIGATOR":"No","TEACHER IN THE LIBRARY":"No","ADDRESS":"1150 W. Fullerton Avenue","CITY":"CHICAGO","STATE":"IL","ZIP":"60614","PHONE":"(312) 744-1926","WEBSITE":"http://www.chipublib.org/branch/details/library/lincoln-park/","LOCATION":"1150 Fullerton Avenue\nCHICAGO, IL 60614\n(41.925591694002954, -87.6581132450843)"},"geometry":null},{"type":"Feature","properties":{"NAME":"Little Village","HOURS OF OPERATION":"M, W: 10AM-6PM;  TU, TH: 12PM-8PM; F, SA: 9AM-5PM; SU: Closed","CYBERNAVIGATOR":"Yes","TEACHER IN THE LIBRARY":"Yes","ADDRESS":"2311 S. Kedzie Avenue","CITY":"CHICAGO","STATE":"IL","ZIP":"60623","PHONE":"(312) 745-1862","WEBSITE":"http://www.chipublib.org/branch/details/library/little-village/","LOCATION":"2311 Kedzie Avenue\nCHICAGO, IL 60623\n(41.8495331, -87.7051215)"},"geometry":null},{"type":"Feature","properties":{"NAME":"Logan Square","HOURS OF OPERATION":"M, W: 10AM-6PM;  TU, TH: 12PM-8PM; F, SA: 9AM-5PM; SU: Closed","CYBERNAVIGATOR":"Yes","TEACHER IN THE LIBRARY":"Yes","ADDRESS":"3030 W. Fullerton Avenue","CITY":"CHICAGO","STATE":"IL","ZIP":"60647","PHONE":"(312) 744-5295","WEBSITE":"http://www.chipublib.org/branch/details/library/logan-square/","LOCATION":"3030 Fullerton Avenue\nCHICAGO, IL 60647\n(41.92505210078537, -87.70339410925955)"},"geometry":null},{"type":"Feature","properties":{"NAME":"Lozano","HOURS OF OPERATION":"M, W: 10AM-6PM;  TU, TH: 12PM-8PM; F, SA: 9AM-5PM; SU: Closed","CYBERNAVIGATOR":"Yes","TEACHER IN THE LIBRARY":"Yes","ADDRESS":"1805 S. Loomis Street","CITY":"CHICAGO","STATE":"IL","ZIP":"60608","PHONE":"(312) 746-4329","WEBSITE":"http://www.chipublib.org/branch/details/library/lozano/","LOCATION":"1805 Loomis Street\nCHICAGO, IL 60608\n(41.85752200960524, -87.6609371162563)"},"geometry":null},{"type":"Feature","properties":{"NAME":"Manning","HOURS OF OPERATION":"M, W: 12PM-8PM; TU, TH: 10AM-6PM; F, SA: 9AM-5PM; SU: Closed","CYBERNAVIGATOR":"Yes","TEACHER IN THE LIBRARY":"Yes","ADDRESS":"6 S. Hoyne Avenue","CITY":"CHICAGO","STATE":"IL","ZIP":"60612","PHONE":"(312) 746-6800","WEBSITE":"http://www.chipublib.org/branch/details/library/mabel-manning/","LOCATION":"6 Hoyne Avenue\nCHICAGO, IL 60612\n(41.88118570415187, -87.67914211111776)"},"geometry":null},{"type":"Feature","properties":{"NAME":"Mayfair","HOURS OF OPERATION":"M, W: 12PM-8PM; TU, TH: 10AM-6PM; F, SA: 9AM-5PM; SU: Closed","CYBERNAVIGATOR":"No","TEACHER IN THE LIBRARY":"Yes","ADDRESS":"4400 W. Lawrence Avenue","CITY":"CHICAGO","STATE":"IL","ZIP":"60630","PHONE":"(312) 744-1254","WEBSITE":"http://www.chipublib.org/branch/details/library/mayfair/","LOCATION":"4400 Lawrence Avenue\nCHICAGO, IL 60630\n(41.968354456496165, -87.7381618989123)"},"geometry":null},{"type":"Feature","properties":{"NAME":"McKinley Park","HOURS OF OPERATION":"M, W: 12PM-8PM; TU, TH: 10AM-6PM; F, SA: 9AM-5PM; SU: Closed","CYBERNAVIGATOR":"No","TEACHER IN THE LIBRARY":"Yes","ADDRESS":"1915 W. 35th Street","CITY":"CHICAGO","STATE":"IL","ZIP":"60609","PHONE":"(312) 747-6082","WEBSITE":"http://www.chipublib.org/branch/details/library/mckinley-park/","LOCATION":"1915 35th Street\nCHICAGO, IL 60609\n(41.830447500170855, -87.67339165430255)"},"geometry":null},{"type":"Feature","properties":{"NAME":"Merlo","HOURS OF OPERATION":"M, W: 12PM-8PM; TU, TH: 10AM-6PM; F, SA: 9AM-5PM; SU: Closed","CYBERNAVIGATOR":"No","TEACHER IN THE LIBRARY":"No","ADDRESS":"644 W. Belmont Avenue","CITY":"CHICAGO","STATE":"IL","ZIP":"60657","PHONE":"(312) 744-1139","WEBSITE":"http://www.chipublib.org/branch/details/library/j-merlo-branch/","LOCATION":"644 Belmont Avenue\nCHICAGO, IL 60657\n(41.940084208613214, -87.64614322696454)"},"geometry":null},{"type":"Feature","properties":{"NAME":"Mount Greenwood","HOURS OF OPERATION":"M, W: 10AM-6PM;  TU, TH: 12PM-8PM; F, SA: 9AM-5PM; SU: Closed","CYBERNAVIGATOR":"No","TEACHER IN THE LIBRARY":"No","ADDRESS":"11010 S. Kedzie Avenue","CITY":"CHICAGO","STATE":"IL","ZIP":"60655","PHONE":"(312) 747-2805","WEBSITE":"http://www.chipublib.org/branch/details/library/mt-greenwood/","LOCATION":"11010 Kedzie Avenue\nCHICAGO, IL 60655\n(41.69291909858246, -87.70103788554279)"},"geometry":null},{"type":"Feature","properties":{"NAME":"Near North","HOURS OF OPERATION":"M, W: 12PM-8PM; TU, TH: 10AM-6PM; F, SA: 9AM-5PM; SU: Closed","CYBERNAVIGATOR":"Yes","TEACHER IN THE LIBRARY":"No","ADDRESS":"310 W. Division Street","CITY":"CHICAGO","STATE":"IL","ZIP":"60610","PHONE":"(312) 744-0991","WEBSITE":"http://www.chipublib.org/branch/details/library/near-north/","LOCATION":"310 Division Street\nCHICAGO, IL 60610\n(41.90386938756309, -87.63648979790898)"},"geometry":null},{"type":"Feature","properties":{"NAME":"North Austin","HOURS OF OPERATION":"M, W: 12PM-8PM; TU, TH: 10AM-6PM; F, SA: 9AM-5PM; SU: Closed","CYBERNAVIGATOR":"Yes","TEACHER IN THE LIBRARY":"Yes","ADDRESS":"5724 W. North Avenue","CITY":"CHICAGO","STATE":"IL","ZIP":"60639","PHONE":"(312) 746-4233","WEBSITE":"http://www.chipublib.org/branch/details/library/north-austin/","LOCATION":"5724 North Avenue\nCHICAGO, IL 60639\n(41.90942919798428, -87.76879898888265)"},"geometry":null},{"type":"Feature","properties":{"NAME":"North Pulaski","HOURS OF OPERATION":"M, W: 10AM-6PM;  TU, TH: 12PM-8PM; F, SA: 9AM-5PM; SU: Closed","CYBERNAVIGATOR":"No","TEACHER IN THE LIBRARY":"Yes","ADDRESS":"4300 W. North Avenue","CITY":"CHICAGO","STATE":"IL","ZIP":"60639","PHONE":"(312) 744-9573","WEBSITE":"http://www.chipublib.org/branch/details/library/north-pulaski/","LOCATION":"4300 North Avenue\nCHICAGO, IL 60639\n(41.91004241611636, -87.73392609215429)"},"geometry":null},{"type":"Feature","properties":{"NAME":"Northtown","HOURS OF OPERATION":"M, W: 10AM-6PM;  TU, TH: 12PM-8PM; F, SA: 9AM-5PM; SU: Closed","CYBERNAVIGATOR":"No","TEACHER IN THE LIBRARY":"Yes","ADDRESS":"6435 N. California Avenue","CITY":"CHICAGO","STATE":"IL","ZIP":"60645","PHONE":"(312) 744-2292","WEBSITE":"http://www.chipublib.org/branch/details/library/northtown/","LOCATION":"6435 California Avenue\nCHICAGO, IL 60645\n(41.99833902904292, -87.6996500514452)"},"geometry":null},{"type":"Feature","properties":{"NAME":"Oriole Park","HOURS OF OPERATION":"M, W: 12PM-8PM; TU, TH: 10AM-6PM; F, SA: 9AM-5PM; SU: Closed","CYBERNAVIGATOR":"Yes","TEACHER IN THE LIBRARY":"No","ADDRESS":"7454 W. Balmoral Avenue","CITY":"CHICAGO","STATE":"IL","ZIP":"60656","PHONE":"(312) 744-1965","WEBSITE":"http://www.chipublib.org/branch/details/library/oriole-park/","LOCATION":"7454 Balmoral Avenue\nCHICAGO, IL 60656\n(41.977961140156296, -87.8132091093451)"},"geometry":null},{"type":"Feature","properties":{"NAME":"Portage-Cragin","HOURS OF OPERATION":"M, W: 12PM-8PM; TU, TH: 10AM-6PM; F, SA: 9AM-5PM; SU: Closed","CYBERNAVIGATOR":"Yes","TEACHER IN THE LIBRARY":"Yes","ADDRESS":"5108 W. Belmont Avenue","CITY":"CHICAGO","STATE":"IL","ZIP":"60641","PHONE":"(312) 744-0152","WEBSITE":"http://www.chipublib.org/branch/details/library/portage-cragin/","LOCATION":"5108 Belmont Avenue\nCHICAGO, IL 60641\n(41.93877675039972, -87.75449293765163)"},"geometry":null},{"type":"Feature","properties":{"NAME":"Pullman","HOURS OF OPERATION":"M, W: 10AM-6PM;  TU, TH: 12PM-8PM; F, SA: 9AM-5PM; SU: Closed","CYBERNAVIGATOR":"Yes","TEACHER IN THE LIBRARY":"No","ADDRESS":"11001 S. Indiana Avenue","CITY":"CHICAGO","STATE":"IL","ZIP":"60628","PHONE":"(312) 747-2033","WEBSITE":"http://www.chipublib.org/branch/details/library/pullman/","LOCATION":"11001 Indiana Avenue\nCHICAGO, IL 60628\n(41.69440640901795, -87.61826066226358)"},"geometry":null},{"type":"Feature","properties":{"NAME":"Roden","HOURS OF OPERATION":"M, W: 10AM-6PM;  TU, TH: 12PM-8PM; F, SA: 9AM-5PM; SU: Closed","CYBERNAVIGATOR":"No","TEACHER IN THE LIBRARY":"No","ADDRESS":"6083 N. Northwest Highway","CITY":"CHICAGO","STATE":"IL","ZIP":"60631","PHONE":"(312) 744-1478","WEBSITE":"http://www.chipublib.org/branch/details/library/roden/","LOCATION":"6083 Northwest Highway\nCHICAGO, IL 60631\n(41.99191752494232, -87.79830189864583)"},"geometry":null},{"type":"Feature","properties":{"NAME":"Rogers Park","HOURS OF OPERATION":"M, W: 12PM-8PM; TU, TH: 10AM-6PM; F, SA: 9AM-5PM; SU: Closed","CYBERNAVIGATOR":"Yes","TEACHER IN THE LIBRARY":"Yes","ADDRESS":"6907 N. Clark Street","CITY":"CHICAGO","STATE":"IL","ZIP":"60626","PHONE":"(312) 744-0156","WEBSITE":"http://www.chipublib.org/branch/details/library/rogers-park/","LOCATION":"6907 Clark Street\nCHICAGO, IL 60626\n(42.00670763656976, -87.67340767268539)"},"geometry":null},{"type":"Feature","properties":{"NAME":"Roosevelt","HOURS OF OPERATION":"M, W: 12PM-8PM; TU, TH: 10AM-6PM; F, SA: 9AM-5PM; SU: Closed","CYBERNAVIGATOR":"Yes","TEACHER IN THE LIBRARY":"Yes","ADDRESS":"1101 W. Taylor Street","CITY":"CHICAGO","STATE":"IL","ZIP":"60607","PHONE":"(312) 746-5656","WEBSITE":"http://www.chipublib.org/branch/details/library/roosevelt/","LOCATION":"1101 Taylor Street\nCHICAGO, IL 60607\n(41.86927614852819, -87.65447998408592)"},"geometry":null},{"type":"Feature","properties":{"NAME":"Scottsdale","HOURS OF OPERATION":"M, W: 10AM-6PM;  TU, TH: 12PM-8PM; F, SA: 9AM-5PM; SU: Closed","CYBERNAVIGATOR":"No","TEACHER IN THE LIBRARY":"No","ADDRESS":"4101 W. 79th Street","CITY":"CHICAGO","STATE":"IL","ZIP":"60652","PHONE":"(312) 747-0193","WEBSITE":"http://www.chipublib.org/branch/details/library/scottsdale/","LOCATION":"4101 79th Street\nCHICAGO, IL 60652\n(41.749361683410754, -87.72439557570442)"},"geometry":null},{"type":"Feature","properties":{"NAME":"Sherman Park","HOURS OF OPERATION":"M, W: 12PM-8PM; TU, TH: 10AM-6PM; F, SA: 9AM-5PM; SU: Closed","CYBERNAVIGATOR":"Yes","TEACHER IN THE LIBRARY":"Yes","ADDRESS":"5440 S. Racine Avenue","CITY":"CHICAGO","STATE":"IL","ZIP":"60609","PHONE":"(312) 747-0477","WEBSITE":"http://www.chipublib.org/branch/details/library/sherman-park/","LOCATION":"5440 Racine Avenue\nCHICAGO, IL 60609\n(41.795279421214886, -87.65492071930115)"},"geometry":null},{"type":"Feature","properties":{"NAME":"South Chicago","HOURS OF OPERATION":"M, W: 12PM-8PM; TU, TH: 10AM-6PM; F, SA: 9AM-5PM; SU: Closed","CYBERNAVIGATOR":"Yes","TEACHER IN THE LIBRARY":"Yes","ADDRESS":"9055 S. Houston Avenue","CITY":"CHICAGO","STATE":"IL","ZIP":"60617","PHONE":"(312) 747-8065","WEBSITE":"http://www.chipublib.org/branch/details/library/south-chicago/","LOCATION":"9055 Houston Avenue\nCHICAGO, IL 60617\n(41.73057483460938, -87.54980694003919)"},"geometry":null},{"type":"Feature","properties":{"NAME":"South Shore","HOURS OF OPERATION":"M, W: 10AM-6PM;  TU, TH: 12PM-8PM; F, SA: 9AM-5PM; SU: Closed","CYBERNAVIGATOR":"Yes","TEACHER IN THE LIBRARY":"Yes","ADDRESS":"2505 E. 73rd Street","CITY":"CHICAGO","STATE":"IL","ZIP":"60649","PHONE":"(312) 747-5281","WEBSITE":"http://www.chipublib.org/branch/details/library/south-shore/","LOCATION":"2505 73rd Street\nCHICAGO, IL 60649\n(41.76155535585864, -87.56208363879564)"},"geometry":null},{"type":"Feature","properties":{"NAME":"Sulzer Regional","HOURS OF OPERATION":"M-TH: 9AM-9PM; F, SA: 9AM-5PM; SU: 1PM-5PM","CYBERNAVIGATOR":"Yes","TEACHER IN THE LIBRARY":"Yes","ADDRESS":"4455 N. Lincoln Avenue","CITY":"CHICAGO","STATE":"IL","ZIP":"60625","PHONE":"(312) 744-7616","WEBSITE":"http://www.chipublib.org/branch/details/library/sulzer-regional/","LOCATION":"4455 Lincoln Avenue\nCHICAGO, IL 60625\n(41.96240358108169, -87.68441684946531)"},"geometry":null},{"type":"Feature","properties":{"NAME":"Thurgood Marshall","HOURS OF OPERATION":"M, W: 12PM-8PM; TU, TH: 10AM-6PM; F, SA: 9AM-5PM; SU: Closed","CYBERNAVIGATOR":"Yes","TEACHER IN THE LIBRARY":"Yes","ADDRESS":"7506 S. Racine Avenue","CITY":"CHICAGO","STATE":"IL","ZIP":"60620","PHONE":"(312) 747-5927","WEBSITE":"http://www.chipublib.org/branch/details/library/thurgood-marshall/","LOCATION":"7506 Racine Avenue\nCHICAGO, IL 60620\n(41.757801751628755, -87.65398155309862)"},"geometry":null},{"type":"Feature","properties":{"NAME":"Toman","HOURS OF OPERATION":"M, W: 12PM-8PM; TU, TH: 10AM-6PM; F, SA: 9AM-5PM; SU: Closed","CYBERNAVIGATOR":"Yes","TEACHER IN THE LIBRARY":"Yes","ADDRESS":"2708 S. Pulaski Road","CITY":"CHICAGO","STATE":"IL","ZIP":"60623","PHONE":"(312) 745-1660","WEBSITE":"http://www.chipublib.org/branch/details/library/toman/","LOCATION":"2708 Pulaski Road\nCHICAGO, IL 60623\n(41.84205367070128, -87.72496884474246)"},"geometry":null},{"type":"Feature","properties":{"NAME":"Uptown","HOURS OF OPERATION":"M, W: 10AM-6PM;  TU, TH: 12PM-8PM; F, SA: 9AM-5PM; SU: Closed","CYBERNAVIGATOR":"Yes","TEACHER IN THE LIBRARY":"Yes","ADDRESS":"929 W. Buena Avenue","CITY":"CHICAGO","STATE":"IL","ZIP":"60613","PHONE":"(312) 744-8400","WEBSITE":"http://www.chipublib.org/branch/details/library/uptown/","LOCATION":"929 Buena Avenue\nCHICAGO, IL 60613\n(41.958445207514295, -87.65351012268938)"},"geometry":null},{"type":"Feature","properties":{"NAME":"Vodak-East Side","HOURS OF OPERATION":"M, W: 12PM-8PM; TU, TH: 10AM-6PM; F, SA: 9AM-5PM; SU: Closed","CYBERNAVIGATOR":"Yes","TEACHER IN THE LIBRARY":"Yes","ADDRESS":"3710 E. 106th Street","CITY":"CHICAGO","STATE":"IL","ZIP":"60617","PHONE":"(312) 747-5500","WEBSITE":"http://www.chipublib.org/branch/details/library/vodak-east-side/","LOCATION":"3710 106th Street\nCHICAGO, IL 60617\n(41.70302747819179, -87.53350318470449)"},"geometry":null},{"type":"Feature","properties":{"NAME":"Walker","HOURS OF OPERATION":"M, W: 10AM-6PM;  TU, TH: 12PM-8PM; F, SA: 9AM-5PM; SU: Closed","CYBERNAVIGATOR":"No","TEACHER IN THE LIBRARY":"Yes","ADDRESS":"11071 S. Hoyne Avenue","CITY":"CHICAGO","STATE":"IL","ZIP":"60643","PHONE":"(312) 747-1920","WEBSITE":"http://www.chipublib.org/branch/details/library/walker/","LOCATION":"11071 Hoyne Avenue\nCHICAGO, IL 60643\n(41.69244169242589, -87.67413286555718)"},"geometry":null},{"type":"Feature","properties":{"NAME":"Water Works","HOURS OF OPERATION":"M-TH: 9AM-7PM; F, SA: 9AM-5PM; SU: 1PM-5PM","CYBERNAVIGATOR":"No","TEACHER IN THE LIBRARY":"No","ADDRESS":"163 E. Pearson Street","CITY":"CHICAGO","STATE":"IL","ZIP":"60611","PHONE":"(312) 742-8811","WEBSITE":"http://www.chipublib.org/branch/details/library/water-works/","LOCATION":"163 Pearson Street\nCHICAGO, IL 60611\n(41.89758435399726, -87.62314877110073)"},"geometry":null},{"type":"Feature","properties":{"NAME":"West Belmont","HOURS OF OPERATION":"M, W: 10AM-6PM;  TU, TH: 12PM-8PM; F, SA: 9AM-5PM; SU: Closed","CYBERNAVIGATOR":"Yes","TEACHER IN THE LIBRARY":"Yes","ADDRESS":"3104 N. Narragansett Avenue","CITY":"CHICAGO","STATE":"IL","ZIP":"60634","PHONE":"(312) 746-5142","WEBSITE":"http://www.chipublib.org/branch/details/library/west-belmont/","LOCATION":"3104 Narragansett Avenue\nCHICAGO, IL 60634\n(41.93666211869315, -87.78589145006396)"},"geometry":null},{"type":"Feature","properties":{"NAME":"West Chicago Avenue","HOURS OF OPERATION":"M, W: 10AM-6PM;  TU, TH: 12PM-8PM; F, SA: 9AM-5PM; SU: Closed","CYBERNAVIGATOR":"Yes","TEACHER IN THE LIBRARY":"Yes","ADDRESS":"4856 W. Chicago Avenue","CITY":"CHICAGO","STATE":"IL","ZIP":"60651","PHONE":"(312) 743-0260","WEBSITE":"http://www.chipublib.org/branch/details/library/west-chicago-avenue/","LOCATION":"4856 Chicago Avenue\nCHICAGO, IL 60651\n(41.895046508790834, -87.74732954000841)"},"geometry":null},{"type":"Feature","properties":{"NAME":"West Englewood","HOURS OF OPERATION":"M, W: 12PM-8PM; TU, TH: 10AM-6PM; F, SA: 9AM-5PM; SU: Closed","CYBERNAVIGATOR":"Yes","TEACHER IN THE LIBRARY":"Yes","ADDRESS":"1745 W. 63rd Street","CITY":"CHICAGO","STATE":"IL","ZIP":"60636","PHONE":"(312) 747-3481","WEBSITE":"http://www.chipublib.org/branch/details/library/west-englewood/","LOCATION":"1745 63rd Street\nCHICAGO, IL 60636\n(41.779334358813195, -87.66812159090755)"},"geometry":null},{"type":"Feature","properties":{"NAME":"West Lawn","HOURS OF OPERATION":"M, W: 12PM-8PM; TU, TH: 10AM-6PM; F, SA: 9AM-5PM; SU: Closed","CYBERNAVIGATOR":"No","TEACHER IN THE LIBRARY":"Yes","ADDRESS":"4020 W. 63rd Street","CITY":"CHICAGO","STATE":"IL","ZIP":"60629","PHONE":"(312) 747-7381","WEBSITE":"http://www.chipublib.org/branch/details/library/west-lawn/","LOCATION":"4020 63rd Street\nCHICAGO, IL 60629\n(41.778662219559784, -87.7235385705056)"},"geometry":null},{"type":"Feature","properties":{"NAME":"West Pullman","HOURS OF OPERATION":"M, W: 12PM-8PM; TU, TH: 10AM-6PM; F, SA: 9AM-5PM; SU: Closed","CYBERNAVIGATOR":"No","TEACHER IN THE LIBRARY":"Yes","ADDRESS":"830 W. 119th Street","CITY":"CHICAGO","STATE":"IL","ZIP":"60643","PHONE":"(312) 747-1425","WEBSITE":"http://www.chipublib.org/branch/details/library/west-pullman/","LOCATION":"830 119th Street\nCHICAGO, IL 60643\n(41.67785087178982, -87.64299968326193)"},"geometry":null},{"type":"Feature","properties":{"NAME":"West Town","HOURS OF OPERATION":"M, W: 10AM-6PM;  TU, TH: 12PM-8PM; F, SA: 9AM-5PM; SU: Closed","CYBERNAVIGATOR":"No","TEACHER IN THE LIBRARY":"Yes","ADDRESS":"1625 W. Chicago Avenue","CITY":"CHICAGO","STATE":"IL","ZIP":"60622","PHONE":"(312) 743-0450","WEBSITE":"http://www.chipublib.org/branch/details/library/west-town/","LOCATION":"1625 Chicago Avenue\nCHICAGO, IL 60622\n(41.895752189070784, -87.6682665907951)"},"geometry":null},{"type":"Feature","properties":{"NAME":"Whitney M. Young, Jr.","HOURS OF OPERATION":"M, W: 10AM-6PM;  TU, TH: 12PM-8PM; F, SA: 9AM-5PM; SU: Closed","CYBERNAVIGATOR":"No","TEACHER IN THE LIBRARY":"Yes","ADDRESS":"7901 S. King Drive","CITY":"CHICAGO","STATE":"IL","ZIP":"60619","PHONE":"(312) 747-0039","WEBSITE":"http://www.chipublib.org/branch/details/library/whitney-young/","LOCATION":"7901 King Drive\nCHICAGO, IL 60619\n(41.75106360973631, -87.61495065361933)"},"geometry":null},{"type":"Feature","properties":{"NAME":"Woodson Regional","HOURS OF OPERATION":"M-TH: 9AM-9PM; F, SA: 9AM-5PM; SU: 1PM-5PM","CYBERNAVIGATOR":"Yes","TEACHER IN THE LIBRARY":"Yes","ADDRESS":"9525 S. Halsted Street","CITY":"CHICAGO","STATE":"IL","ZIP":"60628","PHONE":"(312) 747-6900","WEBSITE":"http://www.chipublib.org/branch/details/library/woodson-regional/","LOCATION":"9525 Halsted Street\nCHICAGO, IL 60628\n(41.72093481286736, -87.64309395216542)"},"geometry":null},{"type":"Feature","properties":{"NAME":"Wrightwood-Ashburn","HOURS OF OPERATION":"M, W: 12PM-8PM; TU, TH: 10AM-6PM; F, SA: 9AM-5PM; SU: Closed","CYBERNAVIGATOR":"No","TEACHER IN THE LIBRARY":"Yes","ADDRESS":"8530 S. Kedzie Avenue","CITY":"CHICAGO","STATE":"IL","ZIP":"60652","PHONE":"(312) 747-2696","WEBSITE":"http://www.chipublib.org/branch/details/library/wrightwood/","LOCATION":"8530 Kedzie Avenue\nCHICAGO, IL 60652\n(41.73832399791064, -87.70213010561923)"},"geometry":null}]}